{
  "users": {
    "student123": {
      "id": "student123",
      "name": "Alex Johnson",
      "email": "alex.j@university.ac.uk",
      "wallet_balance": 0,
      "total_earned": 0,
      "wallet_spent": 0,
      "rent_payments": 0,
      "payment_streak": 0,
      "tier": "Bronze"
    }
  },
  "transactions": [],
  "perks": [
    {
      "id": 1,
      "name": "Boba Tea",
      "cost": 5.5,
      "category": "Food & Drink"
    },
    {
      "id": 2,
      "name": "Costa Coffee",
      "cost": 4.2,
      "category": "Food & Drink"
    },
    {
      "id": 3,
      "name": "Cinema Ticket",
      "cost": 12.0,
      "category": "Entertainment"
    },
    {
      "id": 4,
      "name": "Gym Day Pass",
      "cost": 8.0,
      "category": "Fitness"
    },
    {
      "id": 5,
      "name": "Pizza",
      "cost": 10.0,
      "category": "Food & Drink"
    },
    {
      "id": 6,
      "name": "Student Event Ticket",
      "cost": 15.0,
      "category": "Events"
    },
    {
      "id": 7,
      "name": "Book Store Voucher",
      "cost": 20.0,
      "category": "Education"
    },
    {
      "id": 8,
      "name": "Laundry Service",
      "cost": 6.0,
      "category": "Services"
    }
  ],
  "sponsors": [
    {
      "id": 1,
      "name": "Mooboo Bubble Tea",
      "category": "Food & Drink",
      "address": "47 Oxford Road, Manchester M1 4PF",
      "lat": 53.4753,
      "lng": -2.2376,
      "offers": "10% off with Housr wallet",
      "phone": "0161 236 8899"
    },
    {
      "id": 2,
      "name": "Costa Coffee Manchester",
      "category": "Food & Drink",
      "address": "23 Piccadilly Gardens, Manchester M1 1RG",
      "lat": 53.4808,
      "lng": -2.2368,
      "offers": "Free pastry with any coffee",
      "phone": "0161 228 3456"
    },
    {
      "id": 3,
      "name": "PureGym Manchester",
      "category": "Fitness",
      "address": "89 Portland Street, Manchester M1 4GX",
      "lat": 53.4779,
      "lng": -2.2401,
      "offers": "First week free pass",
      "phone": "0161 819 2345"
    },
    {
      "id": 4,
      "name": "Odeon Cinema",
      "category": "Entertainment",
      "address": "The Printworks, Manchester M4 2BS",
      "lat": 53.4841,
      "lng": -2.2399,
      "offers": "\u00a32 off tickets",
      "phone": "0333 014 4501"
    },
    {
      "id": 5,
      "name": "Waterstones Manchester",
      "category": "Education",
      "address": "91 Deansgate, Manchester M3 2BW",
      "lat": 53.4809,
      "lng": -2.2468,
      "offers": "15% off textbooks",
      "phone": "0161 837 3000"
    },
    {
      "id": 6,
      "name": "Dominos Pizza",
      "category": "Food & Drink",
      "address": "156 Oxford Road, Manchester M13 9GP",
      "lat": 53.4689,
      "lng": -2.2345,
      "offers": "50% off student orders",
      "phone": "0161 273 7777"
    },
    {
      "id": 7,
      "name": "The Gym Group",
      "category": "Fitness",
      "address": "2 Sackville Street, Manchester M1 3LY",
      "lat": 53.4764,
      "lng": -2.2355,
      "offers": "Student discount 20%",
      "phone": "0161 237 9191"
    },
    {
      "id": 8,
      "name": "Gong Cha Bubble Tea",
      "category": "Food & Drink",
      "address": "8 Stevenson Square, Manchester M1 1DB",
      "lat": 53.4823,
      "lng": -2.2348,
      "offers": "Buy 2 get 1 free",
      "phone": "0161 228 6688"
    },
    {
      "id": 9,
      "name": "Pendulum Hotel",
      "category": "Hotels & Accommodation",
      "address": "Sackville St, Manchester M1 3BB",
      "lat": 53.474,
      "lng": -2.23,
      "offers": "5% off student rooms",
      "phone": "0161 955 8000"
    }
  ]
}